City_ID,City,Lat,Lng,Max Temp,Humidity,Cloudiness,Wind Speed,Country,Date
0,crane,31.3974,-102.3501,16.02,19,0,3.31,US,1702759399
1,port-aux-francais,-49.35,70.2167,6.37,87,97,11.11,TF,1702759386
2,mahina,-17.5065,-149.489,29.87,70,20,4.12,PF,1702759211
3,bazarak,35.3129,69.5152,-2.18,77,26,4.56,AF,1702759461
4,conde,-7.2597,-34.9075,26.7,78,0,6.17,BR,1702759461
5,isafjordur,66.0755,-23.124,1.71,88,99,3.47,IS,1702759388
6,avarua,-21.2078,-159.775,27.03,83,75,4.12,CK,1702759392
7,naze,28.3667,129.4833,13.51,70,100,9.85,JP,1702759437
8,adamstown,-25.066,-130.1015,22.8,79,96,6.29,PN,1702759388
9,malango,-2.9627,119.9001,19.31,96,95,1.28,ID,1702759462
10,saint-joseph,-21.3667,55.6167,24.21,80,48,3.81,RE,1702759462
11,fang,19.9169,99.2145,17.01,93,20,0.38,TH,1702759462
12,bethel,41.3712,-73.414,12.05,45,0,1.54,US,1702759386
13,grytviken,-54.2811,-36.5092,11.38,60,29,4.66,GS,1702759386
14,pikalevo,59.5183,34.1664,-4.6,95,99,3.77,RU,1702759462
15,xilin hot,43.9667,116.0333,-27.45,94,6,3.2,CN,1702759444
16,margaret river,-33.95,115.0667,14.95,85,60,5.95,AU,1702759389
17,san andres,12.5847,-81.7006,29.01,70,20,2.57,CO,1702759462
18,puerto natales,-51.7236,-72.4875,10.46,51,49,5.06,CL,1702759393
19,caleta de carquin,-11.0925,-77.6267,22.96,77,96,5.7,PE,1702759463
20,gamba,-2.65,10.0,26.49,88,100,1.61,GA,1702759463
21,rosa zarate,0.3333,-79.4667,24.31,93,100,1.06,EC,1702759463
22,talnakh,69.4865,88.3972,-21.0,99,100,4.15,RU,1702759394
23,papatowai,-46.5619,169.4708,16.11,78,100,4.08,NZ,1702759387
24,osorno,-40.5667,-73.15,11.17,100,100,2.06,CL,1702759463
25,prince rupert,54.3161,-130.3201,2.83,92,0,3.6,CA,1702759405
26,saipan,15.1355,145.701,27.39,78,40,5.66,MP,1702759391
27,petropavlovsk-kamchatsky,53.0452,158.6483,-11.97,89,0,5.36,RU,1702759404
28,porto novo,6.4965,2.6036,28.9,71,3,2.42,BJ,1702759410
29,thompson,55.7435,-97.8558,0.09,74,40,6.17,CA,1702759194
30,buka,40.8108,69.1986,-0.33,90,100,0.78,UZ,1702759391
31,camrose,53.0168,-112.8353,2.17,85,46,2.5,CA,1702759390
32,puerto ayora,-0.7393,-90.3518,28.98,100,81,1.34,EC,1702759401
33,happy valley-goose bay,53.3168,-60.3315,-10.83,48,20,9.77,CA,1702759417
34,port elizabeth,-33.918,25.5701,19.5,93,0,3.09,ZA,1702759419
35,flying fish cove,-10.4217,105.6791,20.82,94,93,0.51,CX,1702759388
36,srandakan,-7.9386,110.2506,25.55,78,97,1.91,ID,1702759464
37,bilibino,68.0546,166.4372,-30.14,99,18,2.42,RU,1702759416
38,howard springs,-12.497,131.047,25.95,97,100,0.81,AU,1702759408
39,ulsteinvik,62.3432,5.8487,8.75,72,16,5.81,NO,1702759464
40,vilyuysk,63.7553,121.6247,-36.02,100,96,0.77,RU,1702759447
41,rabigh,22.7986,39.0349,25.73,23,0,7.0,SA,1702759464
42,midvagur,62.0511,-7.1939,5.46,81,75,1.03,FO,1702759464
43,codrington,-38.2667,141.9667,12.37,82,17,3.48,AU,1702759465
44,ushuaia,-54.8,-68.3,5.81,75,75,14.4,AR,1702759118
45,kayyerkan,69.3786,87.7439,-20.95,83,97,3.6,RU,1702759465
46,vorgashor,67.5833,63.95,-14.71,83,100,6.27,RU,1702759398
47,fairfield,41.2668,-73.3162,11.55,57,0,4.12,US,1702759294
48,tiksi,71.6872,128.8694,-28.94,94,94,1.59,RU,1702759387
49,nar'yan-mar,67.6713,53.087,-9.29,93,100,6.56,RU,1702759419
50,jamestown,42.097,-79.2353,11.77,56,0,2.57,US,1702759331
51,qaqortoq,60.7167,-46.0333,-2.52,89,100,6.47,GL,1702759407
52,blackmans bay,-43.0167,147.3167,12.63,73,30,0.89,AU,1702759391
53,hamilton,39.1834,-84.5333,14.22,44,0,3.09,US,1702759077
54,klyuchi,52.2667,79.1667,-19.91,99,83,2.13,RU,1702759408
55,lata,40.1629,-8.3327,7.26,78,0,1.61,PT,1702759413
56,kingston,17.997,-76.7936,28.53,72,20,10.29,JM,1702759393
57,minot air force base,48.4209,-101.3391,2.05,73,0,6.17,US,1702759466
58,edinburgh of the seven seas,-37.0676,-12.3116,13.2,71,69,6.95,SH,1702759396
59,invercargill,-46.4,168.35,14.66,83,100,6.73,NZ,1702759390
60,bredasdorp,-34.5322,20.0403,17.86,77,5,1.13,ZA,1702759392
61,korla,41.7597,86.1469,-11.92,77,3,0.5,CN,1702759445
62,tura,25.5198,90.2201,13.72,82,1,1.58,IN,1702759420
63,lubango,-14.9172,13.4925,18.37,78,98,1.02,AO,1702759466
64,albany,42.6001,-73.9662,10.23,72,62,1.55,US,1702759293
65,ribeira grande,38.5167,-28.7,19.32,94,75,7.72,PT,1702759399
66,komsomol'skiy,43.9783,46.6985,2.57,74,100,4.14,RU,1702759466
67,opuwo,-18.0607,13.84,24.6,27,43,3.95,NA,1702759435
68,redencao,-4.2258,-38.7306,28.12,65,98,3.12,BR,1702759466
69,college,64.8569,-147.8028,-15.03,82,75,3.09,US,1702759139
70,tazovsky,67.4667,78.7,-17.13,82,100,7.65,RU,1702759388
71,castel di sangro,41.7737,14.1035,3.79,90,55,4.25,IT,1702759467
72,augusto correa,-1.0217,-46.635,27.65,77,66,3.39,BR,1702759467
73,hermanus,-34.4187,19.2345,17.84,80,50,2.48,ZA,1702759411
74,yellowknife,62.456,-114.3525,-17.47,92,100,3.6,CA,1702759389
75,cochem,50.1333,7.15,6.24,100,55,4.12,DE,1702759467
76,moa,20.6569,-74.9403,25.26,85,96,6.26,CU,1702759467
77,kodiak,57.79,-152.4072,2.73,100,100,3.09,US,1702759393
78,stanley,54.868,-1.6985,10.29,87,20,10.8,GB,1702759387
79,berezovyy,51.6667,135.7,-23.37,74,100,0.95,RU,1702759467
80,fortuna,40.5982,-124.1573,21.63,47,0,3.13,US,1702759430
81,batticaloa,7.7102,81.6924,26.1,86,47,2.82,LK,1702759448
82,dzhalagash,45.0833,64.6667,-4.19,49,100,3.3,KZ,1702759467
83,oranjemund,-28.55,16.4333,16.24,95,26,4.35,NA,1702759436
84,moyynkum,44.2914,72.9469,-10.12,92,96,2.66,KZ,1702759468
85,sechura,-5.5569,-80.8222,24.72,68,80,5.39,PE,1702759468
86,port mathurin,-19.6833,63.4167,26.49,77,2,6.72,MU,1702759402
87,ketchikan,55.3422,-131.6461,1.99,93,100,1.54,US,1702759258
88,dolores,-36.3132,-57.6792,26.18,71,100,7.0,AR,1702759468
89,wenling,28.3669,121.36,1.08,63,100,7.21,CN,1702759468
90,georgetown,5.4112,100.3354,26.96,82,20,2.57,MY,1702759395
91,tateyama,34.9833,139.8667,13.94,44,0,17.09,JP,1702759468
92,ar rutbah,33.0381,40.2848,13.31,39,100,4.16,IQ,1702759468
93,weno,7.4515,151.8468,27.97,78,75,3.6,FM,1702759434
94,purpe,64.4803,76.6897,-19.26,86,100,7.02,RU,1702759469
95,waitangi,-43.9535,-176.5597,15.46,95,87,1.79,NZ,1702759388
96,iqaluit,63.7506,-68.5145,-23.15,70,75,2.06,CA,1702759389
97,la passe,45.5549,-0.8967,6.13,86,0,3.78,FR,1702759437
98,belyy yar,53.6039,91.3903,-17.06,78,75,6.0,RU,1702759420
99,tvoroyri,61.5556,-6.8111,7.72,67,100,8.06,FO,1702759469
100,primero de mayo,-32.2552,-58.4228,31.42,69,17,6.16,AR,1702759469
101,lihue,21.9789,-159.3672,24.09,56,100,9.77,US,1702759393
102,baganga,7.5739,126.56,25.99,83,100,5.42,PH,1702759469
103,nogliki,51.8333,143.1667,-20.92,88,96,2.68,RU,1702759469
104,susuman,62.7833,148.1667,-26.12,98,100,1.34,RU,1702759442
105,nemuro,43.3236,145.575,5.06,70,90,14.17,JP,1702759469
106,west island,-12.1568,96.8225,25.99,78,40,4.12,CC,1702759391
107,la sarre,48.8002,-79.1996,-3.73,70,100,4.13,CA,1702759216
108,kone,-21.0595,164.8658,27.52,55,18,1.37,NC,1702759470
109,farrokh shahr,32.2717,50.9801,-3.41,86,0,1.03,IR,1702759470
110,puerto lopez,4.0845,-72.956,30.89,62,93,1.69,CO,1702759470
111,portales,34.1862,-103.3344,15.74,31,0,7.19,US,1702759216
112,meraux,29.933,-89.9498,16.13,85,100,4.63,US,1702759470
113,mount pearl,47.5166,-52.7813,-0.58,54,75,10.29,CA,1702759418
114,cove,7.221,2.3402,25.1,60,3,1.79,BJ,1702759470
115,rio grande,-32.035,-52.0986,31.06,86,68,5.16,BR,1702759470
116,kununurra,-15.7667,128.7333,24.99,100,100,1.54,AU,1702759429
117,pama,11.2497,0.7075,27.09,21,82,2.91,BF,1702759470
118,akureyri,65.6835,-18.0878,2.96,70,75,5.14,IS,1702759471
119,egilsstadir,65.2653,-14.3948,0.95,69,0,5.14,IS,1702759438
120,guerrero negro,27.9769,-114.0611,23.7,28,0,3.94,MX,1702759471
121,meadow lakes,61.6247,-149.6011,-2.67,90,0,1.01,US,1702759471
122,antsohihy,-14.8796,47.9875,26.34,82,70,0.59,MG,1702759471
123,huangnihe,43.5583,128.0239,-21.58,87,99,5.6,CN,1702759471
124,isla mujeres,21.2311,-86.731,27.03,73,84,6.3,MX,1702759471
125,koz'modem'yansk,56.3367,46.5711,-18.0,99,93,2.81,RU,1702759471
126,punta arenas,-53.15,-70.9167,12.06,37,20,13.89,CL,1702759273
127,kirakira,-10.4544,161.9205,26.38,71,51,2.33,SB,1702759471
128,queenstown,-31.8976,26.8753,17.76,87,48,1.73,ZA,1702759472
129,wanning,18.8003,110.3967,19.76,91,100,6.73,CN,1702759472
130,palmer,42.1584,-72.3287,11.78,40,75,0.0,US,1702759472
131,ilulissat,69.2167,-51.1,-14.99,43,20,3.6,GL,1702759398
132,praia da vitoria,38.7333,-27.0667,19.14,94,75,9.34,PT,1702759395
133,arraial do cabo,-22.9661,-42.0278,28.98,78,0,11.83,BR,1702759347
134,whitehorse,60.7161,-135.0538,-8.28,84,20,1.03,CA,1702759398
135,enewetak,11.3474,162.3373,27.51,81,100,9.97,MH,1702759429
136,tuensang,26.2833,94.8333,10.28,94,1,1.61,IN,1702759472
137,bozkir,37.1896,32.2474,9.01,88,47,1.63,TR,1702759472
138,smidovich,48.6,133.8167,-23.73,95,100,1.06,RU,1702759472
139,jindabyne,-36.4167,148.6333,13.59,53,74,0.77,AU,1702759472
140,pisco,-13.7,-76.2167,25.03,69,0,8.75,PE,1702759408
141,immokalee,26.4187,-81.4173,22.19,95,100,5.66,US,1702759473
142,punta del este,-34.9667,-54.95,32.06,58,0,4.63,UY,1702759316
143,palafrugell,41.9174,3.1631,8.59,71,0,4.23,ES,1702759473
144,fort mcmurray,56.7268,-111.381,-1.27,50,0,6.69,CA,1702759473
145,margate,51.3813,1.3862,10.5,90,100,2.68,GB,1702759473
146,namibe,-15.1961,12.1522,22.64,71,35,3.11,AO,1702759429
147,negombo,7.2083,79.8358,25.03,94,40,1.54,LK,1702759473
148,kattivakkam,13.2167,80.3167,26.05,77,100,6.74,IN,1702759473
149,coronel dorrego,-38.7187,-61.2873,32.94,54,54,10.22,AR,1702759473
150,tobruk,32.0836,23.9764,16.87,56,0,0.51,LY,1702759474
151,touros,-5.1989,-35.4608,26.85,79,98,6.86,BR,1702759434
152,hammerfest,70.6634,23.6821,-0.75,80,100,3.6,NO,1702759423
153,tolanaro,-25.0319,46.9987,26.04,89,75,5.14,MG,1702759439
154,yekaterinovka,52.0508,44.3451,-14.01,100,96,3.08,RU,1702759474
155,port alfred,-33.5906,26.891,20.1,91,2,0.45,ZA,1702759403
156,langepas,61.2544,75.2124,-21.94,92,100,3.89,RU,1702759474
157,yuzhno-kurilsk,44.0306,145.8556,4.1,98,98,13.49,RU,1702759474
158,ulanhot,46.0833,122.0833,-23.29,67,0,5.07,CN,1702759419
159,hasaki,35.7333,140.8333,14.22,51,0,6.87,JP,1702759158
160,las veredas,23.1388,-109.7075,29.25,42,40,5.66,MX,1702759224
161,san justo,-30.7891,-60.5919,34.48,56,43,6.5,AR,1702759474
162,puerto deseado,-47.7503,-65.8938,12.09,64,97,7.4,AR,1702759401
163,chonchi,-42.6128,-73.8092,11.18,97,100,0.69,CL,1702759390
164,east london,-33.0153,27.9116,21.36,87,45,5.64,ZA,1702759475
165,pago pago,-14.2781,-170.7025,26.55,100,100,7.2,AS,1702759378
166,saint-pierre,-21.3393,55.4781,24.82,73,0,2.06,RE,1702759415
167,ancud,-41.8697,-73.8203,9.56,91,100,0.95,CL,1702759419
168,taungoo,18.9333,96.4333,17.46,79,12,1.47,MM,1702759475
169,talcahuano,-36.7167,-73.1167,14.82,82,75,9.26,CL,1702759475
170,lewistown,40.5992,-77.5714,12.42,50,0,0.0,US,1702759397
171,bestobe,52.4994,73.0975,-18.77,74,16,3.43,KZ,1702759286
172,keflavik,64.0049,-22.5624,3.24,93,75,10.29,IS,1702759412
173,saint croix,17.7397,-64.7388,27.25,84,75,5.66,VI,1702759475
174,north battleford,52.7834,-108.2847,4.11,65,0,6.69,CA,1702759475
175,salekhard,66.53,66.6019,-15.62,94,100,5.66,RU,1702759476
176,saudarkrokur,65.7461,-19.6394,1.79,81,100,7.36,IS,1702759476
177,bonthe,7.5264,-12.505,26.77,71,100,2.86,SL,1702759476
178,houlton,46.1262,-67.8403,0.23,45,0,3.6,US,1702759476
179,port saint john's,-31.6229,29.5448,22.37,85,94,5.16,ZA,1702759423
180,slutsk,53.0274,27.5597,1.05,100,100,5.37,BY,1702759476
181,moirang,24.5,93.7667,10.09,97,2,0.69,IN,1702759476
182,ust-nera,64.5667,143.2,-33.19,100,99,2.55,RU,1702759412
183,peace river,56.2501,-117.286,0.17,55,75,1.54,CA,1702759414
184,onguday,50.75,86.15,-17.4,95,100,1.22,RU,1702759419
185,homer,59.6425,-151.5483,3.94,61,0,3.09,US,1702759476
186,north ward,-19.2454,146.8075,22.95,88,100,3.6,AU,1702759476
187,pathein,16.7833,94.7333,19.69,87,5,2.68,MM,1702759477
188,polyarnyy,69.1989,33.4478,-5.12,88,100,8.68,RU,1702759398
189,anda,46.4,125.3167,-26.42,87,9,3.3,CN,1702759477
190,ankang,32.68,109.0172,0.29,52,76,0.93,CN,1702759477
191,toliara,-23.35,43.6667,25.19,87,98,0.7,MG,1702759413
192,konigstein im taunus,50.1833,8.4667,5.77,86,75,1.03,DE,1702759477
193,zalingei,12.9096,23.4741,19.73,20,83,1.56,SD,1702759477
194,acapulco de juarez,16.8634,-99.8901,29.9,74,40,3.09,MX,1702759477
195,mata-utu,-13.2816,-176.1745,28.13,76,99,2.69,WF,1702759478
196,hithadhoo,-0.6,73.0833,27.72,76,34,2.97,MV,1702759447
197,ati,13.2154,18.3353,24.1,13,5,3.74,TD,1702759478
198,mugia,43.1041,-9.2179,7.73,70,0,1.93,ES,1702759478
199,smithers,54.7804,-127.1743,-2.82,93,75,3.6,CA,1702759478
200,daru,-9.0763,143.2092,26.1,89,100,2.41,PG,1702759478
201,kristinestad,62.2743,21.376,2.28,91,100,8.3,FI,1702759478
202,olonkinbyen,70.9221,-8.7187,-0.37,97,100,13.79,SJ,1702759403
203,aasiaat,68.7098,-52.8699,-24.58,90,23,3.0,GL,1702759420
204,darab,28.7519,54.5444,11.18,21,0,3.21,IR,1702759478
205,san patricio,28.017,-97.5169,20.92,37,0,6.82,US,1702759397
206,pangai,-19.8,-174.35,26.81,84,100,8.84,TO,1702759479
207,vernon,50.2581,-119.2691,6.45,71,32,0.89,CA,1702759387
208,sitka,57.0531,-135.33,2.94,87,100,2.57,US,1702759390
209,port lincoln,-34.7333,135.8667,16.03,71,0,5.37,AU,1702759411
210,kismayo,-0.3582,42.5454,27.87,80,9,5.94,SO,1702759479
211,badger,64.8,-147.5333,-15.07,83,100,3.09,US,1702759407
212,carnarvon,-24.8667,113.6333,21.8,79,2,6.75,AU,1702759418
213,firuzabad,28.8438,52.5707,9.88,25,0,2.22,IR,1702759479
214,sankheda,22.1667,73.5833,19.8,47,2,1.96,IN,1702759480
215,labytnangi,66.6572,66.4183,-15.91,96,100,4.26,RU,1702759423
216,karratha,-20.7377,116.8463,23.48,68,8,5.9,AU,1702759480
217,slany,50.2305,14.0869,5.11,81,75,7.72,CZ,1702759480
218,el granada,37.5027,-122.4694,21.8,45,0,2.57,US,1702759411
219,fort bragg,35.139,-79.006,16.08,35,0,3.6,US,1702759402
220,al khawr,25.7667,51.3167,19.51,67,0,3.29,QA,1702759480
221,cradock,-32.1642,25.6192,19.77,70,0,2.29,ZA,1702759480
222,shimoda,34.6667,138.95,8.39,57,2,17.14,JP,1702759480
223,puerto lempira,15.2667,-83.7667,28.08,74,40,3.09,HN,1702759480
224,bikenibeu village,1.3673,173.1241,27.98,89,75,1.03,KI,1702759481
225,sandnessjoen,66.0217,12.6316,3.29,71,84,14.9,NO,1702759481
226,kavieng,-2.5744,150.7967,27.99,76,73,1.92,PG,1702759416
227,paraty,-23.2178,-44.7131,27.26,82,71,1.48,BR,1702759481
228,anadyr,64.75,177.4833,-14.72,71,75,6.0,RU,1702759401
229,new norfolk,-42.7826,147.0587,13.29,68,55,1.43,AU,1702759403
230,maloye ganyushkino,46.6,49.2667,-1.71,71,100,3.94,KZ,1702759481
231,holualoa,19.6228,-155.9522,24.75,63,0,7.72,US,1702759481
232,mahavelona,-17.6848,49.5087,24.99,86,91,2.74,MG,1702759481
233,ornskoldsvik,63.2909,18.7153,2.53,87,68,11.32,SE,1702759482
234,basco,20.4487,121.9702,23.13,83,100,19.05,PH,1702759482
235,lebu,-37.6167,-73.65,11.83,96,100,6.11,CL,1702759392
236,udachny,66.4167,112.4,-32.28,100,100,2.06,RU,1702759405
237,manokwari,-0.8667,134.0833,26.33,81,100,1.15,ID,1702759482
238,selfoss,63.9331,-20.9971,2.25,96,100,8.73,IS,1702759428
239,mount gambier,-37.8333,140.7667,12.44,84,31,1.78,AU,1702759391
240,viqueque,-8.8673,126.3658,23.92,91,100,0.95,TL,1702759482
241,ilongero,-4.6667,34.8667,18.3,82,99,3.42,TZ,1702759482
242,ust-tsilma,65.441,52.1498,-9.9,93,100,3.69,RU,1702759482
243,constantia,44.1833,28.65,0.39,79,78,4.51,RO,1702759397
244,niamey,13.5137,2.1098,25.16,15,85,2.57,NE,1702759482
245,apac,1.9756,32.5386,22.4,71,88,1.28,UG,1702759483
246,zhanga buqtyrma,49.6295,83.5248,-21.99,93,89,1.4,KZ,1702759483
247,dudinka,69.4058,86.1778,-20.77,97,55,5.32,RU,1702759399
248,cochrane,51.1834,-114.4687,5.22,80,0,8.23,CA,1702759483
249,sao vicente,-23.9631,-46.3919,29.1,60,100,1.54,BR,1702759447
250,utrik,11.2278,169.8474,26.83,86,90,11.53,MH,1702759392
251,sault ste. marie,46.5168,-84.3333,2.31,100,100,4.12,CA,1702759184
252,vorkuta,67.5,64.0,-14.74,84,100,6.21,RU,1702759483
253,nyala,12.05,24.8833,21.55,23,99,4.89,SD,1702759483
254,canico,32.6333,-16.85,20.4,86,75,4.63,PT,1702759483
255,thames,-37.1333,175.5333,19.35,60,4,2.98,NZ,1702759483
256,atafu village,-8.5421,-172.5159,29.09,69,37,1.12,TK,1702759405
257,newport,51.5877,-2.9984,10.98,91,94,6.0,GB,1702759390
258,kapuskasing,49.4169,-82.4331,0.0,64,100,6.17,CA,1702759483
259,san antonio de pale,-1.4014,5.6325,27.49,81,84,1.58,GQ,1702759422
260,garoua,9.3,13.4,25.42,19,15,1.68,CM,1702759484
261,n'zeto,-7.2312,12.8666,27.21,86,42,4.27,AO,1702759418
262,wabag,-5.4781,143.7021,13.02,96,98,0.98,PG,1702759484
263,tsiombe,-25.3,45.4833,25.51,83,75,2.03,MG,1702759484
264,saint-louis,16.3333,-15.0,24.61,13,100,5.0,SN,1702759484
265,wailua homesteads,22.0669,-159.378,23.75,63,100,9.77,US,1702759395
266,hawaiian paradise park,19.5933,-154.9731,23.83,86,0,4.12,US,1702759390
267,mejit,10.2753,170.8646,27.2,83,91,11.83,MH,1702759484
268,villa gesell,-37.2639,-56.973,22.81,83,100,9.65,AR,1702759484
269,kenitra,34.261,-6.5802,14.42,32,0,4.84,MA,1702759484
270,undurkhaan,47.3194,110.6556,-30.69,90,11,2.15,MN,1702759484
271,ambovombe,-25.1667,46.0833,24.8,85,88,3.04,MG,1702759485
272,zaragoza,41.6561,-0.8773,8.9,67,0,1.34,ES,1702759485
273,nadym,65.5333,72.5167,-14.78,80,100,10.03,RU,1702759485
274,saldanha,-33.0117,17.9442,16.03,87,0,8.08,ZA,1702759425
275,calbuco,-41.768,-73.1273,10.56,92,100,2.0,CL,1702759485
276,kristiansund,63.1115,7.732,5.36,70,75,8.23,NO,1702759427
277,coquimbo,-29.9533,-71.3436,18.85,68,20,5.66,CL,1702759245
278,parnamirim,-5.9156,-35.2628,28.19,74,20,7.2,BR,1702759485
279,obock,12.25,43.0833,20.05,74,31,7.67,DJ,1702759485
280,bridlington,54.0831,-0.1919,10.08,87,51,2.68,GB,1702759485
281,usogorsk,63.4106,48.6872,-11.28,96,100,2.4,RU,1702759433
282,la'ie,21.6477,-157.9253,23.98,62,43,7.8,US,1702759246
283,mandalgovi,45.7625,106.2708,-23.88,90,5,2.18,MN,1702759415
284,kapa'a,22.0752,-159.319,24.5,63,100,9.77,US,1702759444
285,castillos,-34.1667,-53.8333,25.58,75,31,4.29,UY,1702759485
286,kuqa,41.7278,82.9364,-6.25,38,21,1.42,CN,1702759486
287,straja,47.9167,25.55,-0.93,84,16,2.0,RO,1702759486
288,port blair,11.6667,92.75,28.02,78,20,2.06,IN,1702759486
289,nuuk,64.1835,-51.7216,-7.66,62,20,6.69,GL,1702759212
290,afaahiti,-17.75,-149.2833,28.93,84,91,8.12,PF,1702759391
291,oliveira dos brejinhos,-12.3169,-42.8961,32.34,21,28,1.87,BR,1702759486
292,launceston,-41.45,147.1667,12.8,76,0,4.63,AU,1702759486
293,akrehamn,59.2667,5.1833,8.56,93,75,4.12,NO,1702759439
294,miracema do tocantins,-9.5618,-48.3967,35.08,26,23,2.36,BR,1702759426
295,gandi,12.9636,5.7434,21.49,17,24,4.45,NG,1702759486
296,ixtapa,20.7,-105.2,26.57,74,0,4.63,MX,1702759273
297,iskateley,67.6803,53.1512,-9.32,93,100,6.6,RU,1702759387
298,coahuayana de hidalgo,18.7,-103.6583,31.25,53,0,2.73,MX,1702759446
299,oleiros,43.3333,-8.3167,10.62,94,0,3.09,ES,1702759486
300,martignas-sur-jalle,44.8453,-0.7806,4.05,93,0,1.54,FR,1702759486
301,kidal,18.4411,1.4078,20.52,12,1,4.03,ML,1702759401
302,westport,41.1415,-73.3579,12.27,61,0,4.12,US,1702759391
303,vargem grande,-3.5431,-43.9158,27.73,71,91,1.57,BR,1702759306
304,tabou,4.423,-7.3528,27.08,81,5,3.64,CI,1702759487
305,huarmey,-10.0681,-78.1522,23.88,76,86,5.3,PE,1702759487
306,arno,60.1167,18.6333,5.99,92,95,10.52,SE,1702759487
307,nova vicosa,-17.8919,-39.3719,25.74,70,0,3.75,BR,1702759487
308,riacho de santana,-13.6092,-42.9389,32.28,25,54,4.8,BR,1702759487
309,las palmas,28.4204,-14.0131,19.44,40,0,7.2,ES,1702759417
310,murghob,38.1702,73.9667,-13.98,90,100,1.13,TJ,1702759487
311,wuwei,37.9281,102.6414,-12.9,76,2,1.2,CN,1702759487
312,prado,-17.3411,-39.2208,25.54,74,28,2.82,BR,1702759425
313,buala,-8.145,159.5921,26.88,84,54,2.7,SB,1702759487
314,tsiroanomandidy,-18.7667,46.0333,24.1,74,90,1.64,MG,1702759487
315,road town,18.4167,-64.6167,26.05,83,40,5.14,VG,1702759172
316,junin de los andes,-39.9504,-71.0694,17.78,37,3,9.29,AR,1702759488
317,colonia,50.9333,6.95,9.42,85,100,1.54,DE,1702759396
318,taoudenni,22.6783,-3.9836,16.46,25,0,7.65,ML,1702759488
319,calgary,51.0501,-114.0853,5.84,72,20,4.63,CA,1702759423
320,acarau,-2.8856,-40.12,27.51,79,100,7.05,BR,1702759488
321,longyearbyen,78.2186,15.6401,-2.09,80,75,8.75,SJ,1702759385
322,iguape,-24.7081,-47.5553,26.17,83,48,3.78,BR,1702759488
323,luganville,-15.5333,167.1667,26.85,76,49,3.02,VU,1702759488
324,shingu,33.7333,135.9833,4.52,62,24,6.5,JP,1702759421
325,jinghong,21.991,100.7341,14.95,92,11,0.9,CN,1702759488
326,aykhal,66.0,111.5,-29.87,100,99,3.28,RU,1702759488
327,newman,37.3138,-121.0208,17.92,54,3,0.89,US,1702759418
328,st. john's,47.5649,-52.7093,-0.12,54,75,10.29,CA,1702759440
329,waldmunchen,49.3786,12.7042,1.83,92,13,1.95,DE,1702759488
330,lewiston orchards,46.3804,-116.9754,7.37,71,100,1.25,US,1702759488
331,cabo san lucas,22.8909,-109.9124,29.61,58,20,2.06,MX,1702759184
332,la ronge,55.1001,-105.2842,1.14,44,0,11.32,CA,1702759417
333,island harbour,50.724,-1.2758,11.04,91,95,3.58,GB,1702759436
334,ondjiva,-17.0667,15.7333,27.97,24,71,1.73,AO,1702759489
335,tecumseh,42.0039,-83.9449,9.95,60,0,3.6,US,1702759489
336,chui,-33.6971,-53.4616,25.09,79,40,4.12,UY,1702759489
337,robore,-18.3333,-59.75,39.22,19,98,4.77,BO,1702759489
338,gadzhiyevo,69.2551,33.3362,-5.91,90,100,8.29,RU,1702759408
339,kletskaya,49.3145,43.0584,-3.62,90,100,2.71,RU,1702759489
340,ugoofaaru,5.6667,73.0,27.94,73,78,2.05,MV,1702759489
341,high rock,26.6208,-78.2833,22.01,79,100,13.17,BS,1702759489
342,brookings,44.3114,-96.7984,0.21,100,100,6.17,US,1702759489
343,wenchang,30.904,118.4887,-2.1,65,61,2.39,CN,1702759490
344,gebeit,21.0667,36.3167,19.14,68,8,3.18,SD,1702759490
345,manta,-0.95,-80.7333,27.88,74,20,6.71,EC,1702759490
346,toba,34.4833,136.85,8.0,57,53,3.58,JP,1702759490
347,taulaga,-11.0553,-171.0883,28.67,73,98,1.35,AS,1702759490
348,tongouson,5.0214,120.1328,27.47,79,100,4.44,PH,1702759490
349,erenhot,43.6475,111.9767,-21.46,91,6,3.23,CN,1702759490
350,quelimane,-17.8786,36.8883,27.97,83,20,5.36,MZ,1702759490
351,tajerouine,35.8917,8.5528,5.9,86,97,3.86,TN,1702759490
352,nalut,30.3333,10.85,10.3,50,43,2.58,LY,1702759490
353,belvedere marittimo,39.6179,15.8617,7.69,72,21,4.32,IT,1702759491
354,vadso,70.0744,29.7487,-3.91,93,100,9.77,NO,1702759396
355,port douglas,-16.4833,145.4667,25.59,94,100,6.52,AU,1702759491
356,chake chake,-5.2459,39.7666,25.43,87,51,3.15,TZ,1702759491
357,birganj,27.0104,84.8774,13.83,65,8,1.26,NP,1702759491
358,trondheim,63.4305,10.3951,5.05,88,62,3.58,NO,1702759253
359,toamasina,-18.1667,49.3833,25.0,88,40,1.54,MG,1702759491
360,dogondoutchi,13.6393,4.0287,22.65,14,57,4.24,NE,1702759491
361,magadan,59.5667,150.8,-16.73,79,100,6.36,RU,1702759491
362,campo maior,-4.8278,-42.1686,30.63,50,81,3.27,BR,1702759491
363,carolina beach,34.0352,-77.8936,17.04,74,87,0.89,US,1702759491
364,laibin,23.7,109.2667,4.29,66,83,6.11,CN,1702759491
365,severo-yeniseyskiy,60.3725,93.0408,-33.01,100,45,0.45,RU,1702759491
366,vilcun,-38.65,-72.2333,10.41,75,84,5.19,CL,1702759492
367,ghat,24.9647,10.1728,11.38,37,0,2.06,LY,1702759438
368,karbala,32.616,44.0249,16.15,48,100,1.71,IQ,1702759492
369,bykhaw,53.5193,30.2469,0.82,100,100,4.43,BY,1702759492
370,rudbar,30.15,62.6,9.99,46,0,3.37,AF,1702759492
371,karasuk,53.7377,78.0403,-24.52,98,7,2.98,RU,1702759492
372,canutama,-6.5339,-64.3831,32.03,53,90,2.11,BR,1702759492
373,lamu,-2.2717,40.902,25.12,84,12,3.9,KE,1702759434
374,labrador city,52.9463,-66.9114,-11.05,62,100,4.63,CA,1702759388
375,andi,42.7836,46.2617,-3.41,85,44,0.56,RU,1702759492
376,puerto baquerizo moreno,-0.9,-89.6,27.55,78,75,4.12,EC,1702759428
377,greymouth,-42.4667,171.2,16.31,99,100,5.82,NZ,1702759492
378,antsiranana,-12.2787,49.2917,25.57,82,28,4.34,MG,1702759415
379,scarperia,43.992,11.3538,8.41,72,34,4.8,IT,1702759492
380,hastings,50.8552,0.5729,10.86,87,100,7.18,GB,1702759493
381,ouadda,8.0777,22.4007,22.03,26,85,1.78,CF,1702759493
382,beidao,34.5686,105.8933,-8.76,54,4,1.03,CN,1702759493
383,nuku'alofa,-21.1333,-175.2,28.19,83,75,5.66,TO,1702759493
384,kruisfontein,-34.0033,24.7314,18.27,91,0,1.22,ZA,1702759493
385,matamba,-8.9833,33.9667,14.33,81,100,1.94,TZ,1702759493
386,qui nhon,13.7667,109.2333,24.14,87,100,5.04,VN,1702759493
387,domanivka,47.6319,30.9885,2.51,87,100,5.42,UA,1702759493
388,portland,45.5234,-122.6762,11.56,71,75,3.58,US,1702758818
389,lionel town,17.8101,-77.2406,28.94,74,99,5.38,JM,1702759493
390,puri,19.8,85.85,15.29,56,1,3.39,IN,1702759219
391,lexington park,38.2668,-76.4538,13.15,52,100,2.06,US,1702759493
392,kratie,12.4881,106.0188,23.42,77,19,3.48,KH,1702759494
393,nova sintra,14.8667,-24.7167,22.1,72,39,4.5,CV,1702759410
394,nagqu,31.5,92.0,-17.85,85,99,1.59,CN,1702759494
395,caibarien,22.5206,-79.4669,23.62,89,100,6.03,CU,1702759494
396,novodvinsk,64.4165,40.8122,-8.14,96,64,2.61,RU,1702759494
397,fale old settlement,-9.3852,-171.2468,29.13,71,70,2.26,TK,1702759422
398,silsbee,30.3491,-94.178,17.9,70,10,1.34,US,1702759494
399,antofagasta,-23.65,-70.4,21.6,74,11,4.02,CL,1702758963
400,mossel bay,-34.1831,22.146,19.23,80,0,2.5,ZA,1702759408
401,gurupi,-11.7292,-49.0686,35.32,25,16,0.41,BR,1702759494
402,inarajan village,13.2736,144.7484,27.54,87,100,8.47,GU,1702759422
403,cozumel,20.5083,-86.9458,29.04,79,20,4.63,MX,1702759494
404,gorey,52.6747,-6.2925,10.27,91,100,7.86,IE,1702759494
405,sodankyla,67.4167,26.6,-1.37,96,100,2.68,FI,1702759494
406,camarinas,43.1311,-9.1817,7.74,72,0,1.75,ES,1702759495
407,deqen,29.9618,90.7188,-1.81,41,0,2.48,CN,1702759495
408,bereket,39.2446,55.5154,7.68,61,37,5.0,TM,1702759495
409,amos,48.5669,-78.1162,-4.38,73,100,3.36,CA,1702759211
410,sarangani,5.4033,125.4636,27.82,74,74,3.05,PH,1702759495
411,lautoka,-17.6167,177.4667,27.92,78,40,2.06,FJ,1702759495
412,demre,36.2537,29.9777,15.34,79,0,1.6,TR,1702759495
413,brasilia de minas,-16.2064,-44.4333,31.36,22,22,2.48,BR,1702759495
414,bubaque,11.2833,-15.8333,27.95,54,98,4.0,GW,1702759432
415,turki,51.987,43.2731,-12.89,99,98,2.7,RU,1702759495
416,ar ruways,24.1103,52.7306,21.51,67,0,2.99,AE,1702759495
417,argo,37.6333,22.7333,10.99,81,99,4.62,GR,1702759495
418,mgandu,-5.95,34.1333,18.96,74,100,2.38,TZ,1702759495
419,betio village,1.358,172.9211,28.02,82,100,5.32,KI,1702759496
420,bereznik,62.8551,42.7072,-17.67,99,87,1.29,RU,1702759496
421,sake,-1.5736,29.045,18.78,94,97,0.17,CD,1702759496
422,remire-montjoly,4.9167,-52.2667,29.02,79,20,4.12,GF,1702759396
423,gaiman,-43.2897,-65.4929,32.84,8,39,3.27,AR,1702759496
424,nieuw amsterdam,5.8833,-55.0833,31.09,73,40,4.12,SR,1702759496
425,uzgen,40.7699,73.3007,-1.84,86,100,1.44,KG,1702759496
426,sinabang,2.4803,96.3801,26.23,85,98,2.53,ID,1702759496
427,bissau,11.8636,-15.5977,23.06,64,89,2.06,GW,1702759496
428,hovd,48.0056,91.6419,-20.27,91,100,0.63,MN,1702759496
429,ga-kgapane,-23.6333,30.2167,19.99,95,100,0.8,ZA,1702759496
430,puerto madryn,-42.7692,-65.0385,24.27,38,67,9.35,AR,1702759248
431,al mutayrifi,25.4788,49.5576,14.19,58,0,4.35,SA,1702759496
432,iguatemi,-23.6803,-54.5611,33.68,53,31,1.86,BR,1702759496
433,aras-asan,8.8908,126.3033,25.55,91,100,5.96,PH,1702759497
434,bel ombre,-4.6167,55.4167,28.91,74,40,1.03,SC,1702759497
435,saint-philippe,-21.3585,55.7679,24.77,82,24,4.08,RE,1702759403
436,tonghua,41.7201,125.9219,-23.6,99,100,1.55,CN,1702759497
437,tralee,52.2704,-9.7026,11.11,87,100,5.44,IE,1702759417
438,puerto carreno,6.189,-67.4859,28.99,70,40,5.14,CO,1702759497
439,katsuren-haebaru,26.3369,127.8719,16.43,72,100,7.2,JP,1702759497
440,brainerd,46.358,-94.2008,2.14,95,100,0.0,US,1702759497
441,pudozh,61.8099,36.5345,-8.92,95,100,3.13,RU,1702759497
442,lompoc,34.6391,-120.4579,25.99,33,0,2.06,US,1702759424
443,rio cauto,20.5603,-76.9161,28.62,61,100,1.99,CU,1702759497
444,masterton,-40.9597,175.6575,16.6,74,95,4.7,NZ,1702759435
445,ola,59.5833,151.2833,-16.3,77,100,6.64,RU,1702759389
446,zapolyarnyy,69.4154,30.8136,-6.4,95,100,4.93,RU,1702759498
447,vilyuchinsk,52.9306,158.4028,-11.15,86,94,3.56,RU,1702759434
448,limon,10.0,-83.0333,28.94,74,0,2.57,CR,1702759498
449,at taraf,25.3628,49.725,14.3,58,0,4.09,SA,1702759498
450,sant antoni de portmany,38.9807,1.3036,13.87,70,20,2.06,ES,1702759498
451,bardai,11.65,7.2333,19.73,21,0,4.09,NG,1702759400
452,okondja,-0.6549,13.6753,25.27,67,96,0.45,GA,1702759498
453,geraldton,-28.7667,114.6,21.23,83,100,3.6,AU,1702759498
454,rosarito,32.3333,-117.0333,26.62,27,100,2.28,MX,1702759459
455,san luis de la loma,17.2706,-100.8939,29.12,66,0,2.33,MX,1702759498
456,fort wellington,6.4,-57.6,27.68,75,34,4.27,GY,1702759498
457,ta`u,-14.2336,-169.5144,26.22,84,98,9.13,AS,1702759431
458,coro,11.4045,-69.6734,29.09,72,98,7.93,VE,1702759499
459,johnstown,40.3267,-78.922,12.97,45,0,4.12,US,1702759499
460,suva,-18.1416,178.4415,26.59,88,25,4.55,FJ,1702759499
461,koupela,12.1794,-0.3517,25.71,17,80,4.01,BF,1702759499
462,cochin,9.9399,76.2602,25.99,90,92,2.05,IN,1702759499
463,villaquilambre,42.6469,-5.5584,3.54,100,0,0.0,ES,1702759499
464,trujillo,-8.116,-79.03,22.98,78,96,4.63,PE,1702759161
465,milford haven,51.7128,-5.0341,10.06,97,78,8.4,GB,1702759499
466,el nido,11.1858,119.3956,26.97,79,75,1.59,PH,1702759499
467,cidreira,-30.1811,-50.2056,24.29,87,41,6.58,BR,1702759396
468,richards bay,-28.783,32.0377,22.3,85,90,1.44,ZA,1702759303
469,beppu,33.2736,131.4919,2.14,83,84,3.83,JP,1702759499
470,ujae,8.9322,165.7642,27.77,81,45,10.59,MH,1702759391
471,tamanrasset,22.785,5.5228,12.95,24,0,2.57,DZ,1702759499
472,pucallpa,-8.3791,-74.5539,25.02,100,75,1.54,PE,1702759500
473,kete krachi,7.7939,-0.0498,29.5,40,4,1.64,GH,1702759500
474,salinopolis,-0.6136,-47.3561,28.06,76,32,5.28,BR,1702759500
475,minas de marcona,-15.2119,-75.1103,19.16,74,62,6.25,PE,1702759387
476,ha giang,22.8333,104.9833,13.22,94,100,0.78,VN,1702759500
477,altusried,47.8,10.2167,-0.15,92,4,0.58,DE,1702759500
478,santa luzia,-19.7697,-43.8514,31.6,36,40,4.12,BR,1702759500
479,tofol,5.3248,163.0078,27.82,82,53,8.08,FM,1702759500
480,kiunga,-6.1219,141.2906,23.62,100,100,0.84,PG,1702759438
481,val-d'or,48.1002,-77.7828,-2.95,68,75,6.17,CA,1702759501
482,tortoli,39.9256,9.6572,12.9,58,75,16.98,IT,1702759501
483,lom sak,16.7798,101.2422,23.39,67,63,2.58,TH,1702759501
484,mancio lima,-7.6142,-72.8958,25.04,94,100,2.06,BR,1702759501
485,komatsu,36.4026,136.4509,4.99,70,75,13.38,JP,1702759501
486,avranches,48.6833,-1.3667,2.94,91,3,2.15,FR,1702759501
487,beloyarskiy,63.7119,66.6722,-12.66,78,97,4.59,RU,1702759389
488,ritchie,-29.038,24.6028,24.56,20,5,4.37,ZA,1702759502
489,aldan,58.6031,125.3894,-30.38,99,100,0.98,RU,1702759502
490,lagoa,39.05,-27.9833,17.76,94,100,9.04,PT,1702759502
491,nenjiang,49.1833,125.2167,-33.42,93,48,0.74,CN,1702759503
492,senillosa,-39.0,-68.4167,33.88,6,15,17.64,AR,1702759503
493,chernyshevskiy,63.0128,112.4714,-30.51,98,100,1.06,RU,1702759433
494,sanctuary point,-35.1114,150.629,22.08,73,82,1.59,AU,1702759505
495,mbaiki,3.8678,17.9892,24.31,41,99,0.56,CF,1702759506
496,peniche,39.3558,-9.3811,11.36,74,0,2.67,PT,1702759447
497,gobabis,-22.45,18.9667,25.88,39,60,6.09,NA,1702759506
498,inhambane,-23.865,35.3833,25.08,93,80,2.88,MZ,1702759506
499,mugumu,-1.85,34.7,18.04,86,95,0.73,TZ,1702759506
500,papao,-17.75,-149.55,29.82,83,92,8.66,PF,1702759507
501,sao gabriel da cachoeira,-0.1303,-67.0892,29.46,67,99,0.51,BR,1702759507
502,neiafu,-18.65,-173.9833,28.38,78,75,3.09,TO,1702759507
503,dalnegorsk,44.5604,135.5701,-20.97,70,100,6.2,RU,1702759507
504,fostoria,41.157,-83.4169,11.4,56,100,4.02,US,1702759507
505,broken hill,-31.95,141.4333,18.27,40,8,5.74,AU,1702759214
506,mbandaka,0.0487,18.2603,24.32,65,100,1.02,CD,1702759507
507,ridgecrest,35.6225,-117.6709,18.69,20,0,0.89,US,1702759301
508,choix,26.7092,-108.3219,33.66,8,11,1.35,MX,1702759508
509,uliastay,47.7417,96.8444,-21.51,81,100,2.14,MN,1702759508
510,alice springs,-23.7,133.8833,15.75,41,0,2.57,AU,1702759109
511,mikun',62.3547,50.0771,-12.43,95,100,2.55,RU,1702759508
512,zapala,-38.8992,-70.0544,20.02,18,24,17.07,AR,1702759508
513,sur,22.5667,59.5289,23.13,57,0,5.27,OM,1702759508
514,sao paulo de olivenca,-3.3783,-68.8725,27.65,77,87,0.57,BR,1702759508
515,bishop auckland,54.6555,-1.6771,11.03,82,100,3.58,GB,1702759508
516,alofi,-19.0595,-169.9187,27.94,74,75,5.66,NU,1702759430
517,nadi,-17.8,177.4167,28.0,78,40,2.06,FJ,1702759509
518,kokopo,-4.352,152.2633,25.55,85,93,0.98,PG,1702759509
519,arteche,12.2645,125.4048,25.98,86,57,5.71,PH,1702759442
520,hirara,24.8,125.2833,16.15,82,75,14.4,JP,1702759509
521,pariaman,-0.619,100.12,26.03,84,100,1.58,ID,1702759509
522,kalinovskaya,43.5758,45.5192,1.6,64,100,3.94,RU,1702759509
523,zamora,-4.0692,-78.9567,23.43,91,97,1.34,EC,1702759509
524,priargunsk,50.3691,119.1012,-43.39,100,53,0.1,RU,1702759510
525,kodinsk,58.6881,99.1844,-26.98,97,100,1.53,RU,1702759429
526,mananara,-16.1667,49.7667,24.72,91,76,1.19,MG,1702759510
527,uturoa,-16.7333,-151.4333,27.43,78,76,8.85,PF,1702759410
528,vallenar,-28.5708,-70.7581,20.88,31,0,3.96,CL,1702759398
529,axim,4.8699,-2.2405,26.47,79,32,3.13,GH,1702759439
530,chardara,41.2547,67.9692,1.32,94,100,1.48,KZ,1702759510
531,nerchinsk,51.9833,116.5833,-37.96,100,26,0.69,RU,1702759510
532,bandar abbas,27.1865,56.2808,18.99,30,0,3.09,IR,1702759235
533,rockport,28.0206,-97.0544,21.01,60,0,8.75,US,1702759498
534,ghatanji,20.1333,78.3167,18.03,54,26,0.48,IN,1702759511
535,askale,39.9208,40.695,-3.36,77,0,1.07,TR,1702759511
536,magistral'nyy,56.1725,107.4458,-31.4,100,79,0.42,RU,1702759511
537,salinas,36.6777,-121.6555,25.93,35,0,5.14,US,1702759511
538,dauphin,51.1494,-100.0502,2.08,69,20,7.72,CA,1702759511
539,yopal,5.3378,-72.3959,27.04,75,99,0.94,CO,1702759511
540,tacuarembo,-31.7333,-55.9833,27.84,80,100,3.57,UY,1702759314
541,muromtsevo,56.3724,75.2418,-27.66,99,74,2.52,RU,1702759511
542,hugo,45.16,-92.9933,5.14,94,100,0.45,US,1702759512
543,hadibu,12.65,54.0333,23.96,66,44,7.34,YE,1702759440
544,rongelap,11.1635,166.8941,27.07,82,100,10.63,MH,1702759421
545,the dalles,45.5946,-121.1787,7.01,80,100,1.79,US,1702759512
546,miles city,46.4083,-105.8406,7.54,49,0,4.63,US,1702759512
547,vigan,17.5747,120.3869,24.94,73,86,4.3,PH,1702759512
548,yukhnov,54.7444,35.2297,-14.79,100,96,1.99,RU,1702759512
549,inirida,3.8653,-67.9239,29.87,72,59,0.57,CO,1702759436
550,barcelos,41.5388,-8.6151,11.03,78,0,1.88,PT,1702759513
551,pedernales,18.0384,-71.744,28.36,65,23,1.37,DO,1702759513
552,kirov,58.5966,49.6601,-13.56,97,100,1.79,RU,1702759513
553,zakynthos,37.7914,20.8953,13.13,63,97,5.67,GR,1702759513
554,toktogul,41.8708,72.9402,-0.3,80,100,0.37,KG,1702759513
555,namtsy,62.7161,129.6658,-41.73,99,97,1.14,RU,1702759429
556,port macquarie,-31.4333,152.9167,25.5,81,88,6.11,AU,1702759258
557,uruacu,-14.5247,-49.1408,34.64,19,65,1.56,BR,1702759513
558,nouadhibou,20.931,-17.0347,22.99,43,99,5.14,MR,1702759514
559,maragogi,-9.0122,-35.2225,26.23,72,100,3.62,BR,1702759514
560,zdvinsk,54.7021,78.661,-28.76,100,6,2.07,RU,1702759514
561,santa elena de uairen,4.6167,-61.1333,27.64,49,98,2.17,VE,1702759428
562,sfax,34.7406,10.7603,12.08,76,20,4.63,TN,1702759514
563,nosy varika,-20.5833,48.5333,25.8,84,61,4.35,MG,1702759514
564,slavsk,55.0425,21.677,4.4,95,100,7.83,RU,1702759515
565,fuglafjordur,62.244,-6.814,5.26,70,100,7.69,FO,1702759515
566,yigou,35.8114,114.3167,-18.53,92,5,1.0,CN,1702759515
